{
  "stations": [
    {
      "id": "circle-k-murphy-hwy",
      "name": "Circle K",
      "address": "32 Murphy Hwy",
      "regularPrice": 2.57,
      "midGradePrice": 2.87,
      "premiumPrice": 3.17,
      "dieselPrice": 0,
      "distance": 0.4,
      "latitude": 34.8768,
      "longitude": -83.9587,
      "phone": "(706) 745-0876"
    },
    {
      "id": "ingles",
      "name": "Ingles Gas Express",
      "address": "207 GA-515",
      "regularPrice": 2.56,
      "midGradePrice": 2.86,
      "premiumPrice": 3.16,
      "dieselPrice": 0,
      "distance": 0.7,
      "latitude": 34.8715,
      "longitude": -83.9521,
      "phone": "(706) 835-2182"
    },
    {
      "id": "murphy-usa",
      "name": "Murphy USA",
      "address": "2257 B GA Hwy 515 (Walmart)",
      "regularPrice": 2.56,
      "midGradePrice": 2.86,
      "premiumPrice": 3.16,
      "dieselPrice": 2.92,
      "distance": 1.2,
      "latitude": 34.8762,
      "longitude": -83.9582,
      "phone": "(706) 745-0817"
    },
    {
      "id": "shell-515-west",
      "name": "Shell",
      "address": "434 Highway 515 W",
      "regularPrice": 2.77,
      "midGradePrice": 3.07,
      "premiumPrice": 3.37,
      "dieselPrice": 3.07,
      "distance": 0.9,
      "latitude": 34.8805,
      "longitude": -83.9615,
      "phone": "(706) 745-7947"
    },
    {
      "id": "marathon-bracketts",
      "name": "Marathon (Dunkin')",
      "address": "16 Bracketts Way",
      "regularPrice": 2.67,
      "midGradePrice": 3.07,
      "premiumPrice": 3.37,
      "dieselPrice": 3.02,
      "distance": 0.6,
      "latitude": 34.8711,
      "longitude": -83.9505,
      "phone": "(706) 835-2380"
    },
    {
      "id": "bp-murphy",
      "name": "BP",
      "address": "1775 Murphy Hwy",
      "regularPrice": 2.8,
      "midGradePrice": 3.1,
      "premiumPrice": 3.4,
      "dieselPrice": 3.1,
      "distance": 1.9,
      "latitude": 34.8812,
      "longitude": -83.9625,
      "phone": "(706) 745-6569"
    },
    {
      "id": "owltown",
      "name": "Owltown",
      "address": "2193 Gainesville Hwy",
      "regularPrice": 2.72,
      "midGradePrice": 3.02,
      "premiumPrice": 3.32,
      "dieselPrice": 0,
      "distance": 2.1,
      "latitude": 34.8655,
      "longitude": -83.9355,
      "phone": "(706) 745-1427"
    },
    {
      "id": "citgo-mulky",
      "name": "CITGO",
      "address": "29 Mulky Gap Rd",
      "regularPrice": 2.75,
      "midGradePrice": 3.05,
      "premiumPrice": 3.35,
      "dieselPrice": 0,
      "distance": 1.8,
      "latitude": 34.8692,
      "longitude": -83.9411,
      "phone": "(706) 745-7183"
    },
    {
      "id": "booger-hollow",
      "name": "Booger Hollow Store (Valero)",
      "address": "4100 Gainesville Hwy",
      "regularPrice": 2.7,
      "midGradePrice": 3.06,
      "premiumPrice": 3.26,
      "dieselPrice": 2.8,
      "distance": 3.5,
      "latitude": 34.8612,
      "longitude": -83.9722,
      "phone": "(706) 781-6997"
    },
    {
      "id": "Circle-K-Clevelandst",
      "name": "Circle K",
      "address": "325 Cleveland St",
      "regularPrice": 2.79,
      "midGradePrice": 3.09,
      "premiumPrice": 3.39,
      "dieselPrice": 2.8,
      "distance": 0.9,
      "latitude": 34.8725,
      "longitude": -83.9535,
      "phone": "(706) 745-0875"
    },
    {
      "id": "Chevron",
      "name": "Chevron",
      "address": "5224 Murphy Hwy",
      "regularPrice": 2.77,
      "midGradePrice": 3.07,
      "premiumPrice": 3.37,
      "dieselPrice": 3.07,
      "distance": 3.5,
      "latitude": 34.8888,
      "longitude": -83.9702,
      "phone": "(706) 745-5001"
    },
    {
      "id": "Nottely Market",
      "name": "Marathon",
      "address": "5916 Murphy Hwy",
      "regularPrice": 2.75,
      "midGradePrice": 3.05,
      "premiumPrice": 3.35,
      "dieselPrice": 0,
      "distance": 3.8,
      "latitude": 34.885,
      "longitude": -83.965,
      "phone": "(706) 745-4159"
    },
    {
      "id": "gulf-reds",
      "name": "Red's Country Store (Chevron)",
      "address": "199 Foster Rd",
      "regularPrice": 2.85,
      "midGradePrice": 3.15,
      "premiumPrice": 3.45,
      "dieselPrice": 0,
      "distance": 2.2,
      "latitude": 34.878,
      "longitude": -83.961,
      "phone": "(706) 835-1470"
    },
    {
      "id": "jts-victory",
      "name": "JT's Victory Express",
      "address": "1058 Kiutuestia Creek Rd",
      "regularPrice": 2.78,
      "midGradePrice": 3.08,
      "premiumPrice": 3.38,
      "dieselPrice": 0,
      "distance": 3.2,
      "latitude": 34.8835,
      "longitude": -83.9445,
      "phone": "(706) 781-1058"
    },
    {
      "id": "station-nottley",
      "name": "Valero",
      "address": "40 GA-325",
      "regularPrice": 2.8,
      "midGradePrice": 3.1,
      "premiumPrice": 3.4,
      "dieselPrice": 3.12,
      "distance": 4.5,
      "latitude": 34.8945,
      "longitude": -83.9812,
      "phone": "(706) 745-0660"
    },
    {
      "id": "chevron-young-harris",
      "name": "Chevron",
      "address": "430A Young Harris Hwy",
      "regularPrice": 2.82,
      "midGradePrice": 3.12,
      "premiumPrice": 3.42,
      "dieselPrice": 0,
      "distance": 2.8,
      "latitude": 34.8678,
      "longitude": -83.9234,
      "phone": "(706) 745-0964"
    },
    {
      "id": "sunrise",
      "name": "Sunrise Grocery",
      "address": "7568 Gainesville Hwy",
      "regularPrice": 3.5,
      "midGradePrice": 3.8,
      "premiumPrice": 4.1,
      "dieselPrice": 0,
      "distance": 4.2,
      "latitude": 34.859,
      "longitude": -83.975,
      "phone": "(706) 745-5877"
    },
    {
      "id": "marathon-murphy-far",
      "name": "Marathon",
      "address": "10613 Murphy Hwy",
      "regularPrice": 2.75,
      "midGradePrice": 3.05,
      "premiumPrice": 3.35,
      "dieselPrice": 0,
      "distance": 5.1,
      "latitude": 34.892,
      "longitude": -83.978,
      "phone": "(706) 745-2548"
    }
  ],
  "timestamp": 1769683564011,
  "lastUpdated": "2026-01-29T10:46:04.011Z",
  "averagePrice": 2.74,
  "lowestPrice": 2.56,
  "highestPrice": 3.5,
  "totalStations": 18,
  "dataSource": "estimated",
  "confidence": "low",
  "updateCount": 1,
  "notes": {
    "diesel_availability": "9 stations confirmed with diesel",
    "data_quality": "Phone numbers verified for 18 stations",
    "last_verified": "2025-01-28"
  }
}